{
"type": "FeatureCollection",
"crs": { "type": "name", "properties": { "name": "urn:ogc:def:crs:OGC:1.3:CRS84" } },
                                                                                
"features": [
{ "type": "Feature", "properties": { "id": 4, "Name": "Madison Candy Factory", "Descriptio": "“Think about how the current businesses in this building produce value, and contrast these post-Fordist forms of production to the Fordist mode of production that used to inhabit it.", "PhotoLink": null, "Address": "744 Williamson St.", "iconLink24": null, "iconLink36": null }, "geometry": { "type": "Point", "coordinates": [ -89.371953550849724, 43.07805483986813 ] } },
{ "type": "Feature", "properties": { "id": 3, "Name": "Wil-Mar Neighborhood Center", "Descriptio": ". Built as a church and now a community center, the building provides a good opportunity to reflect on how the neighborhood has changed.", "PhotoLink": null, "Address": "953 Jenifer St.", "iconLink24": null, "iconLink36": null }, "geometry": { "type": "Point", "coordinates": [ -89.366976240603208, 43.079849673461318 ] } },
{ "type": "Feature", "properties": { "id": 2, "Name": "Power Plant", "Descriptio": "Think through questions about energy flows through homes and business, inequalities related to the electric grid, and alternative forms of power.", "PhotoLink": "images\/powerPlant.jpg", "Address": "722 E Main St.", "iconLink24": null, "iconLink36": null }, "geometry": { "type": "Point", "coordinates": [ -89.375201651182024, 43.079766795017484 ] } },
{ "type": "Feature", "properties": { "id": 1, "Name": "Railroad Station (now MG&E)", "Descriptio": "Former railroad station...", "PhotoLink": "images\/railroadStation.jpg", "Address": "133 S Blair St.", "iconLink24": null, "iconLink36": null }, "geometry": { "type": "Point", "coordinates": [ -89.377256640357785, 43.077604078273943 ] } },
{ "type": "Feature", "properties": { "id": 0, "Name": "Badger State Shoe Factory", "Descriptio": "(From Wikipedia) The building was constructed in 1910 after the company had originally expanded its production to Madison in 1900.  designated a landmark by the Madison Landmarks Commission in 1989.", "PhotoLink": "images\/BadgerStateShoeFactory1.jpg", "Address": "123 N Blount", "iconLink24": null, "iconLink36": null }, "geometry": { "type": "Point", "coordinates": [ -89.378615022118979, 43.081285046311976 ] } }
]
}
